{
	"type" : "FeatureCollection",
	"name" : "points",
	"features" : [
		{
			"type" : "Feature",
			"geometry" : {
				"type" : "Point",
				"coordinates" : [ 20.5375347139, 54.7089653018 ]
			},
			"properties" : {
				"name" : "ПодвалЪ",
				"rating" : 5
			}
		},
		{
			"type" : "Feature",
			"geometry" : {
				"type" : "Point",
				"coordinates" : [ 20.5336704247, 54.698318481 ]
			},
			"properties" : {
				"name" : "Стадион Калининград",
				"rating" : 4.5
			}
		},
		{
			"type" : "Feature",
			"geometry" : {
				"type" : "Point",
				"coordinates" : [ 20.4365100863, 54.7123985288 ]
			},
			"properties" : {
				"name" : "Кирха Юдиттен",
				"rating" : 4.5
			}
		},
		{
			"type" : "Feature",
			"geometry" : {
				"type" : "Point",
				"coordinates" : [ 20.5144195561, 54.7052307132 ]
			},
			"properties" : {
				"name" : "Синагога",
				"rating" : 5
			}
		},
		{
			"type" : "Feature",
			"geometry" : {
				"type" : "Point",
				"coordinates" : [ 20.4957408908, 54.741340637 ]
			},
			"properties" : {
				"name" : "Дворец спорта Янтарный",
				"rating" : 4
			}
		},
		{
			"type" : "Feature",
			"geometry" : {
				"type" : "Point",
				"coordinates" : [ 20.4886398316, 54.7161102291 ]
			},
			"properties" : {
				"name" : "Альбатрос",
				"rating" : 4.5
			}
		},
		{
			"type" : "Feature",
			"geometry" : {
				"type" : "Point",
				"coordinates" : [ 20.5176696778, 54.698318481 ]
			},
			"properties" : {
				"name" : "Атлас",
				"rating" : 3.5
			}
		},
		{
			"type" : "Feature",
			"geometry" : {
				"type" : "Point",
				"coordinates" : [ 20.5144405362, 54.7146797178 ]
			},
			"properties" : {
				"name" : "Музей-квартира Зои Куприяновой",
				"rating" : 4.5
			}
		},
		{
			"type" : "Feature",
			"geometry" : {
				"type" : "Point",
				"coordinates" : [ 20.5146503449, 54.705768585 ]
			},
			"properties" : {
				"name" : "Медовый мост",
				"rating" : 4
			}
		},
		{
			"type" : "Feature",
			"geometry" : {
				"type" : "Point",
				"coordinates" : [ 20.4653797153, 54.7148094182 ]
			},
			"properties" : {
				"name" : "Меланхтон кирха",
				"rating" : 0
			}
		},
		{
			"type" : "Feature",
			"geometry" : {
				"type" : "Point",
				"coordinates" : [ 20.516893387, 54.690807343 ]
			},
			"properties" : {
				"name" : "Пейнтбол и лазертаг клуб \"Западный фронт\"",
				"rating" : 5
			}
		},
		{
			"type" : "Feature",
			"geometry" : {
				"type" : "Point",
				"coordinates" : [ 20.5125808718, 54.7203712457 ]
			},
			"properties" : {
				"name" : "Здание пожарной части Норд",
				"rating" : 4
			}
		},
		{
			"type" : "Feature",
			"geometry" : {
				"type" : "Point",
				"coordinates" : [ 20.5043697356, 54.6968917848 ]
			},
			"properties" : {
				"name" : "Калининградская областная филармония",
				"rating" : 4.5
			}
		},
		{
			"type" : "Feature",
			"geometry" : {
				"type" : "Point",
				"coordinates" : [ 20.49757576, 54.756958008 ]
			},
			"properties" : {
				"name" : "Kidsberg",
				"rating" : 4
			}
		},
		{
			"type" : "Feature",
			"geometry" : {
				"type" : "Point",
				"coordinates" : [ 20.5033321383, 54.6924743648 ]
			},
			"properties" : {
				"name" : "Музей железнодорожного транспорта Калининградской железной дороги",
				"rating" : 4
			}
		},
		{
			"type" : "Feature",
			"geometry" : {
				"type" : "Point",
				"coordinates" : [ 20.4918060301, 54.709869385 ]
			},
			"properties" : {
				"name" : "Центральная городская библиотека им. А.П. Чехова",
				"rating" : 4.5
			}
		},
		{
			"type" : "Feature",
			"geometry" : {
				"type" : "Point",
				"coordinates" : [ 20.4999904629, 54.7214012151 ]
			},
			"properties" : {
				"name" : "Гранд",
				"rating" : 5
			}
		},
		{
			"type" : "Feature",
			"geometry" : {
				"type" : "Point",
				"coordinates" : [ 20.50428009, 54.7062034608 ]
			},
			"properties" : {
				"name" : "Памятник рыбакам",
				"rating" : 4
			}
		},
		{
			"type" : "Feature",
			"geometry" : {
				"type" : "Point",
				"coordinates" : [ 20.5233993528, 54.7210311889 ]
			},
			"properties" : {
				"name" : "Памятник Александру Василевскому",
				"rating" : 4.5
			}
		},
		{
			"type" : "Feature",
			"geometry" : {
				"type" : "Point",
				"coordinates" : [ 20.500480652, 54.7066688542 ]
			},
			"properties" : {
				"name" : "Самолет - амфибия Б12",
				"rating" : 4.5
			}
		},
		{
			"type" : "Feature",
			"geometry" : {
				"type" : "Point",
				"coordinates" : [ 20.5080204008, 54.7088012699 ]
			},
			"properties" : {
				"name" : "Памятник В.И. Ленину",
				"rating" : 3
			}
		},
		{
			"type" : "Feature",
			"geometry" : {
				"type" : "Point",
				"coordinates" : [ 20.3459491726, 54.649288177 ]
			},
			"properties" : {
				"name" : "Храм Святой благоверной княгини Ольги",
				"rating" : 5
			}
		},
		{
			"type" : "Feature",
			"geometry" : {
				"type" : "Point",
				"coordinates" : [ 20.5219001769, 54.7176589972 ]
			},
			"properties" : {
				"name" : "Памятник академику Павлову",
				"rating" : 0
			}
		},
		{
			"type" : "Feature",
			"geometry" : {
				"type" : "Point",
				"coordinates" : [ 20.5134506233, 54.722099304 ]
			},
			"properties" : {
				"name" : "Дом народного творчества",
				"rating" : 4
			}
		},
		{
			"type" : "Feature",
			"geometry" : {
				"type" : "Point",
				"coordinates" : [ 20.4674549099, 54.7189521792 ]
			},
			"properties" : {
				"name" : "Vinifera",
				"rating" : 4.5
			}
		},
		{
			"type" : "Feature",
			"geometry" : {
				"type" : "Point",
				"coordinates" : [ 20.5229015352, 54.7221527098 ]
			},
			"properties" : {
				"name" : "Калининградский музей янтаря",
				"rating" : 4.5
			}
		},
		{
			"type" : "Feature",
			"geometry" : {
				"type" : "Point",
				"coordinates" : [ 20.4955902101, 54.716991425 ]
			},
			"properties" : {
				"name" : "Памятник героям Первой мировой войны",
				"rating" : 4
			}
		},
		{
			"type" : "Feature",
			"geometry" : {
				"type" : "Point",
				"coordinates" : [ 20.4924602506, 54.710811615 ]
			},
			"properties" : {
				"name" : "Аусфальские ворота",
				"rating" : 3.5
			}
		},
		{
			"type" : "Feature",
			"geometry" : {
				"type" : "Point",
				"coordinates" : [ 20.5176486968, 54.6955795288 ]
			},
			"properties" : {
				"name" : "LASERGAME",
				"rating" : 5
			}
		},
		{
			"type" : "Feature",
			"geometry" : {
				"type" : "Point",
				"coordinates" : [ 20.4545803073, 54.761508942 ]
			},
			"properties" : {
				"name" : "Каприоль",
				"rating" : 0
			}
		},
		{
			"type" : "Feature",
			"geometry" : {
				"type" : "Point",
				"coordinates" : [ 20.5081100464, 54.7068557742 ]
			},
			"properties" : {
				"name" : "Парк Скульптуры Музей",
				"rating" : 4
			}
		},
		{
			"type" : "Feature",
			"geometry" : {
				"type" : "Point",
				"coordinates" : [ 20.5235805511, 54.6834602359 ]
			},
			"properties" : {
				"name" : "Храм покрова Пресвятой Богородицы",
				"rating" : 4.5
			}
		},
		{
			"type" : "Feature",
			"geometry" : {
				"type" : "Point",
				"coordinates" : [ 20.5377998346, 54.7091484071 ]
			},
			"properties" : {
				"name" : "Квест-Хаус",
				"rating" : 4.5
			}
		},
		{
			"type" : "Feature",
			"geometry" : {
				"type" : "Point",
				"coordinates" : [ 20.473560333, 54.7194099429 ]
			},
			"properties" : {
				"name" : "Кирха памяти королевы Луизы",
				"rating" : 4.5
			}
		},
		{
			"type" : "Feature",
			"geometry" : {
				"type" : "Point",
				"coordinates" : [ 20.5900554662, 54.7085990907 ]
			},
			"properties" : {
				"name" : "Artschool",
				"rating" : 0
			}
		},
		{
			"type" : "Feature",
			"geometry" : {
				"type" : "Point",
				"coordinates" : [ 20.5216598506, 54.7115592961 ]
			},
			"properties" : {
				"name" : "Здание Кройц-аптека",
				"rating" : 3.5
			}
		},
		{
			"type" : "Feature",
			"geometry" : {
				"type" : "Point",
				"coordinates" : [ 20.4425354004, 54.7528305048 ]
			},
			"properties" : {
				"name" : "Музей Истории Великой Отечественной Войны Форт # 5",
				"rating" : 4.5
			}
		},
		{
			"type" : "Feature",
			"geometry" : {
				"type" : "Point",
				"coordinates" : [ 20.4865894323, 54.729011536 ]
			},
			"properties" : {
				"name" : "Groveside Hookah",
				"rating" : 0
			}
		},
		{
			"type" : "Feature",
			"geometry" : {
				"type" : "Point",
				"coordinates" : [ 20.4970512391, 54.7204513552 ]
			},
			"properties" : {
				"name" : "Борющиеся зубры",
				"rating" : 4.5
			}
		},
		{
			"type" : "Feature",
			"geometry" : {
				"type" : "Point",
				"coordinates" : [ 20.5464000698, 54.7120704648 ]
			},
			"properties" : {
				"name" : "Мотошкола Дениса Грачева",
				"rating" : 0
			}
		},
		{
			"type" : "Feature",
			"geometry" : {
				"type" : "Point",
				"coordinates" : [ 20.5336093896, 54.708770752 ]
			},
			"properties" : {
				"name" : "Ворота госпиталя Лёбенихта",
				"rating" : 3.5
			}
		},
		{
			"type" : "Feature",
			"geometry" : {
				"type" : "Point",
				"coordinates" : [ 20.5304241181, 54.7311553958 ]
			},
			"properties" : {
				"name" : "Марципановый домик",
				"rating" : 5
			}
		},
		{
			"type" : "Feature",
			"geometry" : {
				"type" : "Point",
				"coordinates" : [ 20.5127696994, 54.7286796572 ]
			},
			"properties" : {
				"name" : "Калининградский Музей Марципана",
				"rating" : 4
			}
		},
		{
			"type" : "Feature",
			"geometry" : {
				"type" : "Point",
				"coordinates" : [ 20.4839992516, 54.6701202388 ]
			},
			"properties" : {
				"name" : "ИНДИГО \"Южная ферма\"",
				"rating" : 0
			}
		},
		{
			"type" : "Feature",
			"geometry" : {
				"type" : "Point",
				"coordinates" : [ 20.5049304963, 54.6991386411 ]
			},
			"properties" : {
				"name" : "Бранденбургские ворота",
				"rating" : 4.5
			}
		},
		{
			"type" : "Feature",
			"geometry" : {
				"type" : "Point",
				"coordinates" : [ 20.5268096918, 54.7223396301 ]
			},
			"properties" : {
				"name" : "Башня Кронпринц",
				"rating" : 4
			}
		},
		{
			"type" : "Feature",
			"geometry" : {
				"type" : "Point",
				"coordinates" : [ 20.4992408754, 54.6956100458 ]
			},
			"properties" : {
				"name" : "Памятник М.И. Глинке",
				"rating" : 0
			}
		},
		{
			"type" : "Feature",
			"geometry" : {
				"type" : "Point",
				"coordinates" : [ 20.5000305179, 54.7236709588 ]
			},
			"properties" : {
				"name" : "Музей Занимательных Наук Эйнштейна",
				"rating" : 4.5
			}
		},
		{
			"type" : "Feature",
			"geometry" : {
				"type" : "Point",
				"coordinates" : [ 20.4594097141, 54.6829299931 ]
			},
			"properties" : {
				"name" : "Балтийский",
				"rating" : 4.5
			}
		},
		{
			"type" : "Feature",
			"geometry" : {
				"type" : "Point",
				"coordinates" : [ 20.4518909454, 54.7716789251 ]
			},
			"properties" : {
				"name" : "Regional Tourism Information Center",
				"rating" : 5
			}
		},
		{
			"type" : "Feature",
			"geometry" : {
				"type" : "Point",
				"coordinates" : [ 20.5097408291, 54.7128372189 ]
			},
			"properties" : {
				"name" : "Музей Бункер",
				"rating" : 4.5
			}
		},
		{
			"type" : "Feature",
			"geometry" : {
				"type" : "Point",
				"coordinates" : [ 20.4886398316, 54.7161102291 ]
			},
			"properties" : {
				"name" : "Храм Святого великомученика целителя Пантелеймона",
				"rating" : 4.5
			}
		},
		{
			"type" : "Feature",
			"geometry" : {
				"type" : "Point",
				"coordinates" : [ 20.5674800871, 54.7106018068 ]
			},
			"properties" : {
				"name" : "роллер-клуб \"Мерлин\"",
				"rating" : 0
			}
		},
		{
			"type" : "Feature",
			"geometry" : {
				"type" : "Point",
				"coordinates" : [ 20.5253696439, 54.7243499758 ]
			},
			"properties" : {
				"name" : "Форт № 3 - Король Фридрих-Вильгельм I",
				"rating" : 4.5
			}
		},
		{
			"type" : "Feature",
			"geometry" : {
				"type" : "Point",
				"coordinates" : [ 20.5135192869, 54.7220802308 ]
			},
			"properties" : {
				"name" : "Башня «Врангель»",
				"rating" : 3.5
			}
		},
		{
			"type" : "Feature",
			"geometry" : {
				"type" : "Point",
				"coordinates" : [ 20.5002956386, 54.7165184022 ]
			},
			"properties" : {
				"name" : "Маяк",
				"rating" : 5
			}
		},
		{
			"type" : "Feature",
			"geometry" : {
				"type" : "Point",
				"coordinates" : [ 20.503070831, 54.720825195 ]
			},
			"properties" : {
				"name" : "Кафедральный собор Христа Спасителя",
				"rating" : 4
			}
		},
		{
			"type" : "Feature",
			"geometry" : {
				"type" : "Point",
				"coordinates" : [ 20.500070572, 54.7213783261 ]
			},
			"properties" : {
				"name" : "Часовня Святого праведного адмирала Федора Ушакова",
				"rating" : 5
			}
		},
		{
			"type" : "Feature",
			"geometry" : {
				"type" : "Point",
				"coordinates" : [ 20.4954490659, 54.72480011 ]
			},
			"properties" : {
				"name" : "Музей Боевой Славы 11-й гвардии",
				"rating" : 4
			}
		},
		{
			"type" : "Feature",
			"geometry" : {
				"type" : "Point",
				"coordinates" : [ 20.5026302343, 54.715930939 ]
			},
			"properties" : {
				"name" : "Дом Искусств Концертно-Театральный Комплекс",
				"rating" : 4
			}
		},
		{
			"type" : "Feature",
			"geometry" : {
				"type" : "Point",
				"coordinates" : [ 20.5134506233, 54.722099304 ]
			},
			"properties" : {
				"name" : "Здание выставочного зала Кунстхалле",
				"rating" : 4
			}
		},
		{
			"type" : "Feature",
			"geometry" : {
				"type" : "Point",
				"coordinates" : [ 20.4866695396, 54.7137908938 ]
			},
			"properties" : {
				"name" : "Парк Победы",
				"rating" : 4.5
			}
		},
		{
			"type" : "Feature",
			"geometry" : {
				"type" : "Point",
				"coordinates" : [ 20.5308132171, 54.7384452822 ]
			},
			"properties" : {
				"name" : "The Best Tour Guide in Kaliningrad",
				"rating" : 5
			}
		},
		{
			"type" : "Feature",
			"geometry" : {
				"type" : "Point",
				"coordinates" : [ 20.5253696439, 54.7243499758 ]
			},
			"properties" : {
				"name" : "Храм Александра Невского",
				"rating" : 4.5
			}
		},
		{
			"type" : "Feature",
			"geometry" : {
				"type" : "Point",
				"coordinates" : [ 20.5381183619, 54.7095985409 ]
			},
			"properties" : {
				"name" : "Закхаймские ворота",
				"rating" : 4.5
			}
		},
		{
			"type" : "Feature",
			"geometry" : {
				"type" : "Point",
				"coordinates" : [ 20.5092506409, 54.721561432 ]
			},
			"properties" : {
				"name" : "Трудовые Резервы",
				"rating" : 4
			}
		},
		{
			"type" : "Feature",
			"geometry" : {
				"type" : "Point",
				"coordinates" : [ 20.4887905123, 54.7113685611 ]
			},
			"properties" : {
				"name" : "Скульптура \"Медведица с медвежонком\"",
				"rating" : 5
			}
		},
		{
			"type" : "Feature",
			"geometry" : {
				"type" : "Point",
				"coordinates" : [ 20.5135192869, 54.7220802308 ]
			},
			"properties" : {
				"name" : "ТЦ Акрополь",
				"rating" : 3
			}
		},
		{
			"type" : "Feature",
			"geometry" : {
				"type" : "Point",
				"coordinates" : [ 20.5030097958, 54.7209205629 ]
			},
			"properties" : {
				"name" : "Часовня Святых благоверных князей Петра и Февронии Муромских",
				"rating" : 4
			}
		},
		{
			"type" : "Feature",
			"geometry" : {
				"type" : "Point",
				"coordinates" : [ 20.5440921783, 54.707847595 ]
			},
			"properties" : {
				"name" : "Yalta Club",
				"rating" : 5
			}
		},
		{
			"type" : "Feature",
			"geometry" : {
				"type" : "Point",
				"coordinates" : [ 20.5161342621, 54.7080307012 ]
			},
			"properties" : {
				"name" : "Памятный знак морякам-балтийцам",
				"rating" : 4.5
			}
		},
		{
			"type" : "Feature",
			"geometry" : {
				"type" : "Point",
				"coordinates" : [ 20.4873104103, 54.731361389 ]
			},
			"properties" : {
				"name" : "Индивидуальные экскурсии  в Калининграде. Алена & Ко",
				"rating" : 5
			}
		},
		{
			"type" : "Feature",
			"geometry" : {
				"type" : "Point",
				"coordinates" : [ 20.4982681266, 54.7063407899 ]
			},
			"properties" : {
				"name" : "Научно-исследовательское судно Космонавт Виктор Пацаев",
				"rating" : 3.5
			}
		},
		{
			"type" : "Feature",
			"geometry" : {
				"type" : "Point",
				"coordinates" : [ 20.5111961358, 54.7326736452 ]
			},
			"properties" : {
				"name" : "Зорро Парк",
				"rating" : 5
			}
		},
		{
			"type" : "Feature",
			"geometry" : {
				"type" : "Point",
				"coordinates" : [ 20.5018596648, 54.673961639 ]
			},
			"properties" : {
				"name" : "Салон красоты \"Кристи\"",
				"rating" : 0
			}
		},
		{
			"type" : "Feature",
			"geometry" : {
				"type" : "Point",
				"coordinates" : [ 20.5067787171, 54.7051391601 ]
			},
			"properties" : {
				"name" : "Калининградский музей изобразительных искусств",
				"rating" : 4
			}
		},
		{
			"type" : "Feature",
			"geometry" : {
				"type" : "Point",
				"coordinates" : [ 20.4785194404, 54.7208061222 ]
			},
			"properties" : {
				"name" : "Калининградский зоопарк",
				"rating" : 4.5
			}
		},
		{
			"type" : "Feature",
			"geometry" : {
				"type" : "Point",
				"coordinates" : [ 20.4612655643, 54.7450981142 ]
			},
			"properties" : {
				"name" : "Монастырь Святой Преподобномученицы Великой Княгини Елисаветы",
				"rating" : 4.5
			}
		},
		{
			"type" : "Feature",
			"geometry" : {
				"type" : "Point",
				"coordinates" : [ 20.520479202, 54.7114715581 ]
			},
			"properties" : {
				"name" : "Школа Королевы Луизы",
				"rating" : 4.5
			}
		},
		{
			"type" : "Feature",
			"geometry" : {
				"type" : "Point",
				"coordinates" : [ 20.5131206514, 54.7009887701 ]
			},
			"properties" : {
				"name" : "Мост Юбилейный",
				"rating" : 4.5
			}
		},
		{
			"type" : "Feature",
			"geometry" : {
				"type" : "Point",
				"coordinates" : [ 20.4844093316, 54.7330093383 ]
			},
			"properties" : {
				"name" : "Спартак",
				"rating" : 3
			}
		},
		{
			"type" : "Feature",
			"geometry" : {
				"type" : "Point",
				"coordinates" : [ 20.5146579743, 54.7278594969 ]
			},
			"properties" : {
				"name" : "Перевернутый Дом",
				"rating" : 4
			}
		},
		{
			"type" : "Feature",
			"geometry" : {
				"type" : "Point",
				"coordinates" : [ 20.5050907144, 54.7089691158 ]
			},
			"properties" : {
				"name" : "Янтарное сердце",
				"rating" : 5
			}
		},
		{
			"type" : "Feature",
			"geometry" : {
				"type" : "Point",
				"coordinates" : [ 20.5182495116, 54.7308883668 ]
			},
			"properties" : {
				"name" : "Юность",
				"rating" : 4.5
			}
		},
		{
			"type" : "Feature",
			"geometry" : {
				"type" : "Point",
				"coordinates" : [ 20.4875297547, 54.7189483641 ]
			},
			"properties" : {
				"name" : "Галерея \"Емельянов\"",
				"rating" : 5
			}
		},
		{
			"type" : "Feature",
			"geometry" : {
				"type" : "Point",
				"coordinates" : [ 20.479389191, 54.7208518982 ]
			},
			"properties" : {
				"name" : "Храм Святого апостола Андрея Первозванного",
				"rating" : 5
			}
		},
		{
			"type" : "Feature",
			"geometry" : {
				"type" : "Point",
				"coordinates" : [ 20.521591187, 54.6955451971 ]
			},
			"properties" : {
				"name" : "Фридландские ворота",
				"rating" : 4.5
			}
		},
		{
			"type" : "Feature",
			"geometry" : {
				"type" : "Point",
				"coordinates" : [ 20.5416202554, 54.722309113 ]
			},
			"properties" : {
				"name" : "Скульптура «Кошелек»",
				"rating" : 3.5
			}
		},
		{
			"type" : "Feature",
			"geometry" : {
				"type" : "Point",
				"coordinates" : [ 20.4654808036, 54.7216911322 ]
			},
			"properties" : {
				"name" : "Калининградский областной музыкальный театр",
				"rating" : 4.5
			}
		},
		{
			"type" : "Feature",
			"geometry" : {
				"type" : "Point",
				"coordinates" : [ 20.50315094, 54.7193870538 ]
			},
			"properties" : {
				"name" : "Кловер Сити-Центр",
				"rating" : 4
			}
		},
		{
			"type" : "Feature",
			"geometry" : {
				"type" : "Point",
				"coordinates" : [ 20.5148200987, 54.7052307132 ]
			},
			"properties" : {
				"name" : "Музей стекла",
				"rating" : 3.5
			}
		},
		{
			"type" : "Feature",
			"geometry" : {
				"type" : "Point",
				"coordinates" : [ 20.500480652, 54.7066688542 ]
			},
			"properties" : {
				"name" : "Памятник Николаю Чудотворцу",
				"rating" : 4
			}
		},
		{
			"type" : "Feature",
			"geometry" : {
				"type" : "Point",
				"coordinates" : [ 20.4815692899, 54.72013855 ]
			},
			"properties" : {
				"name" : "Памятный знак землякам-космонавтам",
				"rating" : 4
			}
		},
		{
			"type" : "Feature",
			"geometry" : {
				"type" : "Point",
				"coordinates" : [ 20.4557495123, 54.7141113278 ]
			},
			"properties" : {
				"name" : "Памятник Людвикасу Реза",
				"rating" : 4
			}
		},
		{
			"type" : "Feature",
			"geometry" : {
				"type" : "Point",
				"coordinates" : [ 20.500656128, 54.7317543032 ]
			},
			"properties" : {
				"name" : "Роллерсберг",
				"rating" : 5
			}
		},
		{
			"type" : "Feature",
			"geometry" : {
				"type" : "Point",
				"coordinates" : [ 20.5223007204, 54.7159194948 ]
			},
			"properties" : {
				"name" : "Творческая студия художника Андрея Пузикова",
				"rating" : 3.5
			}
		},
		{
			"type" : "Feature",
			"geometry" : {
				"type" : "Point",
				"coordinates" : [ 20.451980591, 54.7716903691 ]
			},
			"properties" : {
				"name" : "DiscoVery Concept Store",
				"rating" : 5
			}
		},
		{
			"type" : "Feature",
			"geometry" : {
				"type" : "Point",
				"coordinates" : [ 20.4964008328, 54.7359085081 ]
			},
			"properties" : {
				"name" : "ИНДИГО",
				"rating" : 0
			}
		},
		{
			"type" : "Feature",
			"geometry" : {
				"type" : "Point",
				"coordinates" : [ 20.5144195561, 54.7052307132 ]
			},
			"properties" : {
				"name" : "Видовая башня Маяк",
				"rating" : 4.5
			}
		},
		{
			"type" : "Feature",
			"geometry" : {
				"type" : "Point",
				"coordinates" : [ 20.5202693942, 54.7133789061 ]
			},
			"properties" : {
				"name" : "Здание комендатуры Кёнигсберга",
				"rating" : 3.5
			}
		},
		{
			"type" : "Feature",
			"geometry" : {
				"type" : "Point",
				"coordinates" : [ 20.4995594018, 54.7168083188 ]
			},
			"properties" : {
				"name" : "Памятная плита Фридриху Вильгельму Бесселю",
				"rating" : 3.5
			}
		},
		{
			"type" : "Feature",
			"geometry" : {
				"type" : "Point",
				"coordinates" : [ 20.5125904083, 54.7390708919 ]
			},
			"properties" : {
				"name" : "Ботанический сад Балтийского Федерального Университета имени И. Канта",
				"rating" : 4.5
			}
		},
		{
			"type" : "Feature",
			"geometry" : {
				"type" : "Point",
				"coordinates" : [ 20.5475769041, 54.7109565728 ]
			},
			"properties" : {
				"name" : "Vanana Park",
				"rating" : 4
			}
		},
		{
			"type" : "Feature",
			"geometry" : {
				"type" : "Point",
				"coordinates" : [ 20.4534893043, 54.712818146 ]
			},
			"properties" : {
				"name" : "Вагонка",
				"rating" : 3.5
			}
		},
		{
			"type" : "Feature",
			"geometry" : {
				"type" : "Point",
				"coordinates" : [ 20.5076904299, 54.6677589422 ]
			},
			"properties" : {
				"name" : "Памятный знак героям-комсомольцам",
				"rating" : 3
			}
		},
		{
			"type" : "Feature",
			"geometry" : {
				"type" : "Point",
				"coordinates" : [ 20.4994392396, 54.7173690798 ]
			},
			"properties" : {
				"name" : "Монумент Мать-Россия",
				"rating" : 4
			}
		},
		{
			"type" : "Feature",
			"geometry" : {
				"type" : "Point",
				"coordinates" : [ 20.4776897429, 54.7198905938 ]
			},
			"properties" : {
				"name" : "Памятник Ангел Мира",
				"rating" : 5
			}
		},
		{
			"type" : "Feature",
			"geometry" : {
				"type" : "Point",
				"coordinates" : [ 20.4682102196, 54.7266311652 ]
			},
			"properties" : {
				"name" : "Музей Советского Детства",
				"rating" : 5
			}
		},
		{
			"type" : "Feature",
			"geometry" : {
				"type" : "Point",
				"coordinates" : [ 20.5253105159, 54.6933708192 ]
			},
			"properties" : {
				"name" : "Музей Восточной Пруссии",
				"rating" : 0
			}
		},
		{
			"type" : "Feature",
			"geometry" : {
				"type" : "Point",
				"coordinates" : [ 20.4907608034, 54.7249107358 ]
			},
			"properties" : {
				"name" : "Профилактико-оздоровительный клуб Соляной Грот",
				"rating" : 5
			}
		},
		{
			"type" : "Feature",
			"geometry" : {
				"type" : "Point",
				"coordinates" : [ 20.451980591, 54.7716903691 ]
			},
			"properties" : {
				"name" : "Храм Архангела Гавриила",
				"rating" : 4.5
			}
		},
		{
			"type" : "Feature",
			"geometry" : {
				"type" : "Point",
				"coordinates" : [ 20.5115604404, 54.7065315252 ]
			},
			"properties" : {
				"name" : "Памятник Юлиусу Руппу",
				"rating" : 4
			}
		},
		{
			"type" : "Feature",
			"geometry" : {
				"type" : "Point",
				"coordinates" : [ 20.483930588, 54.6809806821 ]
			},
			"properties" : {
				"name" : "Пивоваренный завод Понарт",
				"rating" : 3.5
			}
		},
		{
			"type" : "Feature",
			"geometry" : {
				"type" : "Point",
				"coordinates" : [ 20.5623321531, 54.7619438171 ]
			},
			"properties" : {
				"name" : "Нижнее озеро",
				"rating" : 4
			}
		},
		{
			"type" : "Feature",
			"geometry" : {
				"type" : "Point",
				"coordinates" : [ 20.4683666226, 54.7362594601 ]
			},
			"properties" : {
				"name" : "Ваш гид в Калининграде",
				"rating" : 0
			}
		},
		{
			"type" : "Feature",
			"geometry" : {
				"type" : "Point",
				"coordinates" : [ 20.4510288241, 54.7137107851 ]
			},
			"properties" : {
				"name" : "Арапарк",
				"rating" : 4.5
			}
		},
		{
			"type" : "Feature",
			"geometry" : {
				"type" : "Point",
				"coordinates" : [ 20.5157909394, 54.7022018432 ]
			},
			"properties" : {
				"name" : "Рыбная деревня",
				"rating" : 4
			}
		},
		{
			"type" : "Feature",
			"geometry" : {
				"type" : "Point",
				"coordinates" : [ 20.5172271731, 54.724067688 ]
			},
			"properties" : {
				"name" : "Посейдон",
				"rating" : 5
			}
		},
		{
			"type" : "Feature",
			"geometry" : {
				"type" : "Point",
				"coordinates" : [ 20.4725704192, 54.7175712589 ]
			},
			"properties" : {
				"name" : "Сладкоежка",
				"rating" : 5
			}
		},
		{
			"type" : "Feature",
			"geometry" : {
				"type" : "Point",
				"coordinates" : [ 20.5225296021, 54.6938018802 ]
			},
			"properties" : {
				"name" : "Южный",
				"rating" : 3.5
			}
		},
		{
			"type" : "Feature",
			"geometry" : {
				"type" : "Point",
				"coordinates" : [ 20.451980591, 54.7716903691 ]
			},
			"properties" : {
				"name" : "Балтийский Центр Малой Авиации",
				"rating" : 4.5
			}
		},
		{
			"type" : "Feature",
			"geometry" : {
				"type" : "Point",
				"coordinates" : [ 20.3707313539, 54.7165679932 ]
			},
			"properties" : {
				"name" : "Храм святых бессребреников чудотворцев Космы и Дамиана",
				"rating" : 4
			}
		},
		{
			"type" : "Feature",
			"geometry" : {
				"type" : "Point",
				"coordinates" : [ 20.5165214539, 54.6941566472 ]
			},
			"properties" : {
				"name" : "Парк миниатюр История в архитектуре",
				"rating" : 4.5
			}
		},
		{
			"type" : "Feature",
			"geometry" : {
				"type" : "Point",
				"coordinates" : [ 20.4897708887, 54.7193984991 ]
			},
			"properties" : {
				"name" : "Ледовый каток Golden Way",
				"rating" : 3
			}
		},
		{
			"type" : "Feature",
			"geometry" : {
				"type" : "Point",
				"coordinates" : [ 20.473520279, 54.7403297421 ]
			},
			"properties" : {
				"name" : "Скульптура Кот и три птицы",
				"rating" : 4.5
			}
		},
		{
			"type" : "Feature",
			"geometry" : {
				"type" : "Point",
				"coordinates" : [ 20.4887199398, 54.716060638 ]
			},
			"properties" : {
				"name" : "Стадион Балтика",
				"rating" : 4
			}
		},
		{
			"type" : "Feature",
			"geometry" : {
				"type" : "Point",
				"coordinates" : [ 20.4713592531, 54.721248627 ]
			},
			"properties" : {
				"name" : "Амалиенау. Гид в Калининграде",
				"rating" : 4.5
			}
		},
		{
			"type" : "Feature",
			"geometry" : {
				"type" : "Point",
				"coordinates" : [ 20.5121803282, 54.7063789371 ]
			},
			"properties" : {
				"name" : "Могила Иммануила Канта",
				"rating" : 4.5
			}
		},
		{
			"type" : "Feature",
			"geometry" : {
				"type" : "Point",
				"coordinates" : [ 20.5437202452, 54.7068481452 ]
			},
			"properties" : {
				"name" : "Тингплатц",
				"rating" : 5
			}
		},
		{
			"type" : "Feature",
			"geometry" : {
				"type" : "Point",
				"coordinates" : [ 20.4921283716, 54.719722748 ]
			},
			"properties" : {
				"name" : "Калининградский Областной Драматический Театр",
				"rating" : 4
			}
		},
		{
			"type" : "Feature",
			"geometry" : {
				"type" : "Point",
				"coordinates" : [ 20.4518909454, 54.7716789251 ]
			},
			"properties" : {
				"name" : "Региональный Информационный Центр Туризма",
				"rating" : 5
			}
		},
		{
			"type" : "Feature",
			"geometry" : {
				"type" : "Point",
				"coordinates" : [ 20.5110988617, 54.7064590452 ]
			},
			"properties" : {
				"name" : "Памятник Альбрехту",
				"rating" : 4.5
			}
		},
		{
			"type" : "Feature",
			"geometry" : {
				"type" : "Point",
				"coordinates" : [ 20.536561966, 54.7276496892 ]
			},
			"properties" : {
				"name" : "Игорь Ляшук гид по Калининграду и области",
				"rating" : 5
			}
		},
		{
			"type" : "Feature",
			"geometry" : {
				"type" : "Point",
				"coordinates" : [ 20.4997634892, 54.7065162661 ]
			},
			"properties" : {
				"name" : "Музей Мирового океана",
				"rating" : 4.5
			}
		},
		{
			"type" : "Feature",
			"geometry" : {
				"type" : "Point",
				"coordinates" : [ 20.5137004852, 54.7107810971 ]
			},
			"properties" : {
				"name" : "Мировые Часы",
				"rating" : 3
			}
		},
		{
			"type" : "Feature",
			"geometry" : {
				"type" : "Point",
				"coordinates" : [ 20.5219497684, 54.7285156253 ]
			},
			"properties" : {
				"name" : "Верхнее озеро",
				"rating" : 4.5
			}
		},
		{
			"type" : "Feature",
			"geometry" : {
				"type" : "Point",
				"coordinates" : [ 20.5095653531, 54.6972656248 ]
			},
			"properties" : {
				"name" : "Кирха Святого Семейства",
				"rating" : 4.5
			}
		},
		{
			"type" : "Feature",
			"geometry" : {
				"type" : "Point",
				"coordinates" : [ 20.4207096098, 54.7207489012 ]
			},
			"properties" : {
				"name" : "Правдинская ГЭС-3",
				"rating" : 5
			}
		},
		{
			"type" : "Feature",
			"geometry" : {
				"type" : "Point",
				"coordinates" : [ 20.5253105159, 54.6933708192 ]
			},
			"properties" : {
				"name" : "Редюит бастиона Прегель",
				"rating" : 3
			}
		},
		{
			"type" : "Feature",
			"geometry" : {
				"type" : "Point",
				"coordinates" : [ 20.5182495116, 54.7308883668 ]
			},
			"properties" : {
				"name" : "Калининградский Клуб Картинга",
				"rating" : 4.5
			}
		},
		{
			"type" : "Feature",
			"geometry" : {
				"type" : "Point",
				"coordinates" : [ 20.5330009463, 54.7167701721 ]
			},
			"properties" : {
				"name" : "Литовский вал",
				"rating" : 4
			}
		},
		{
			"type" : "Feature",
			"geometry" : {
				"type" : "Point",
				"coordinates" : [ 20.4924602506, 54.710811615 ]
			},
			"properties" : {
				"name" : "Олимпик",
				"rating" : 2
			}
		},
		{
			"type" : "Feature",
			"geometry" : {
				"type" : "Point",
				"coordinates" : [ 20.5063800807, 54.7050819398 ]
			},
			"properties" : {
				"name" : "Скульптура Папа Хомлин",
				"rating" : 0
			}
		},
		{
			"type" : "Feature",
			"geometry" : {
				"type" : "Point",
				"coordinates" : [ 20.5013713837, 54.706363678 ]
			},
			"properties" : {
				"name" : "Пакгауз",
				"rating" : 4.5
			}
		},
		{
			"type" : "Feature",
			"geometry" : {
				"type" : "Point",
				"coordinates" : [ 20.5116195684, 54.7353591918 ]
			},
			"properties" : {
				"name" : "Laser Strike",
				"rating" : 5
			}
		},
		{
			"type" : "Feature",
			"geometry" : {
				"type" : "Point",
				"coordinates" : [ 20.528160095, 54.712860107 ]
			},
			"properties" : {
				"name" : "Улица Фрунзе",
				"rating" : 3.5
			}
		},
		{
			"type" : "Feature",
			"geometry" : {
				"type" : "Point",
				"coordinates" : [ 20.5097599031, 54.7170486451 ]
			},
			"properties" : {
				"name" : "Стена почтовых ящиков",
				"rating" : 4.5
			}
		},
		{
			"type" : "Feature",
			"geometry" : {
				"type" : "Point",
				"coordinates" : [ 20.4513092036, 54.764308929 ]
			},
			"properties" : {
				"name" : "Храм Святого Равноапостольного князя Владимира",
				"rating" : 4
			}
		},
		{
			"type" : "Feature",
			"geometry" : {
				"type" : "Point",
				"coordinates" : [ 20.5358829501, 54.7137451171 ]
			},
			"properties" : {
				"name" : "Королевские ворота",
				"rating" : 4.5
			}
		},
		{
			"type" : "Feature",
			"geometry" : {
				"type" : "Point",
				"coordinates" : [ 20.5020103446, 54.6972007751 ]
			},
			"properties" : {
				"name" : "Памятник В.И. Ленину",
				"rating" : 5
			}
		},
		{
			"type" : "Feature",
			"geometry" : {
				"type" : "Point",
				"coordinates" : [ 20.4763603207, 54.6742897028 ]
			},
			"properties" : {
				"name" : "ИСТ-ВИНГ",
				"rating" : 4.5
			}
		},
		{
			"type" : "Feature",
			"geometry" : {
				"type" : "Point",
				"coordinates" : [ 20.5453891749, 54.7114486692 ]
			},
			"properties" : {
				"name" : "Вест Синема",
				"rating" : 3
			}
		},
		{
			"type" : "Feature",
			"geometry" : {
				"type" : "Point",
				"coordinates" : [ 20.4909191126, 54.7124214172 ]
			},
			"properties" : {
				"name" : "Астрономический бастион",
				"rating" : 4
			}
		},
		{
			"type" : "Feature",
			"geometry" : {
				"type" : "Point",
				"coordinates" : [ 20.5145092007, 54.7052192691 ]
			},
			"properties" : {
				"name" : "Cкульптура \"Трактирщица\"",
				"rating" : 4.5
			}
		},
		{
			"type" : "Feature",
			"geometry" : {
				"type" : "Point",
				"coordinates" : [ 20.506210327, 54.701480865 ]
			},
			"properties" : {
				"name" : "Здание Госпиталя Святого Георга",
				"rating" : 4
			}
		},
		{
			"type" : "Feature",
			"geometry" : {
				"type" : "Point",
				"coordinates" : [ 20.5145092007, 54.7052192691 ]
			},
			"properties" : {
				"name" : "Балтик-Экспо",
				"rating" : 2.5
			}
		},
		{
			"type" : "Feature",
			"geometry" : {
				"type" : "Point",
				"coordinates" : [ 20.474494934, 54.7220077511 ]
			},
			"properties" : {
				"name" : "Музей-квартира Альтес Хаус",
				"rating" : 4.5
			}
		},
		{
			"type" : "Feature",
			"geometry" : {
				"type" : "Point",
				"coordinates" : [ 20.5184803014, 54.7151489258 ]
			},
			"properties" : {
				"name" : "Памятник Александру Маринеско",
				"rating" : 4.5
			}
		},
		{
			"type" : "Feature",
			"geometry" : {
				"type" : "Point",
				"coordinates" : [ 20.5097503656, 54.6958503721 ]
			},
			"properties" : {
				"name" : "Памятник \"Якорь\"",
				"rating" : 3
			}
		},
		{
			"type" : "Feature",
			"geometry" : {
				"type" : "Point",
				"coordinates" : [ 20.500480652, 54.7066688542 ]
			},
			"properties" : {
				"name" : "Научно-исследовательское судно \"Витязь\"",
				"rating" : 5
			}
		},
		{
			"type" : "Feature",
			"geometry" : {
				"type" : "Point",
				"coordinates" : [ 20.5011196138, 54.7062416082 ]
			},
			"properties" : {
				"name" : "Скамья Иммануила Канта",
				"rating" : 4.5
			}
		},
		{
			"type" : "Feature",
			"geometry" : {
				"type" : "Point",
				"coordinates" : [ 20.5073165888, 54.7051467899 ]
			},
			"properties" : {
				"name" : "Здание кёнигсбергской биржи",
				"rating" : 4.5
			}
		},
		{
			"type" : "Feature",
			"geometry" : {
				"type" : "Point",
				"coordinates" : [ 20.5144195561, 54.7052307132 ]
			},
			"properties" : {
				"name" : "Птица счастья",
				"rating" : 4.5
			}
		},
		{
			"type" : "Feature",
			"geometry" : {
				"type" : "Point",
				"coordinates" : [ 20.4668502808, 54.7128982538 ]
			},
			"properties" : {
				"name" : "Памятник барабанным собакам",
				"rating" : 5
			}
		},
		{
			"type" : "Feature",
			"geometry" : {
				"type" : "Point",
				"coordinates" : [ 20.6098709108, 54.7189102173 ]
			},
			"properties" : {
				"name" : "Калининградский региональный общественно мусульманский центр",
				"rating" : 5
			}
		},
		{
			"type" : "Feature",
			"geometry" : {
				"type" : "Point",
				"coordinates" : [ 20.479389191, 54.7208518982 ]
			},
			"properties" : {
				"name" : "Yplison Project",
				"rating" : 4
			}
		},
		{
			"type" : "Feature",
			"geometry" : {
				"type" : "Point",
				"coordinates" : [ 20.4730091088, 54.7204895022 ]
			},
			"properties" : {
				"name" : "Travel agency Visinger",
				"rating" : 0
			}
		},
		{
			"type" : "Feature",
			"geometry" : {
				"type" : "Point",
				"coordinates" : [ 20.5101203916, 54.7144813539 ]
			},
			"properties" : {
				"name" : "Памятник Иммануилу Канту",
				"rating" : 4.5
			}
		},
		{
			"type" : "Feature",
			"geometry" : {
				"type" : "Point",
				"coordinates" : [ 20.4887199398, 54.716060638 ]
			},
			"properties" : {
				"name" : "Здание финансового управления Восточной Пруссии",
				"rating" : 4.5
			}
		},
		{
			"type" : "Feature",
			"geometry" : {
				"type" : "Point",
				"coordinates" : [ 20.4865703584, 54.7197189329 ]
			},
			"properties" : {
				"name" : "Калининградская областная научная библиотека",
				"rating" : 5
			}
		},
		{
			"type" : "Feature",
			"geometry" : {
				"type" : "Point",
				"coordinates" : [ 20.5002593988, 54.7180709839 ]
			},
			"properties" : {
				"name" : "Дом Эрнста Лилиенталя",
				"rating" : 4
			}
		},
		{
			"type" : "Feature",
			"geometry" : {
				"type" : "Point",
				"coordinates" : [ 20.4841766356, 54.7276077269 ]
			},
			"properties" : {
				"name" : "Школа гончарного искусства Колокол",
				"rating" : 5
			}
		},
		{
			"type" : "Feature",
			"geometry" : {
				"type" : "Point",
				"coordinates" : [ 20.473560333, 54.7194099429 ]
			},
			"properties" : {
				"name" : "Центральный парк культуры и отдыха",
				"rating" : 4.5
			}
		},
		{
			"type" : "Feature",
			"geometry" : {
				"type" : "Point",
				"coordinates" : [ 20.5225296021, 54.6938018802 ]
			},
			"properties" : {
				"name" : "Локомотив",
				"rating" : 2.5
			}
		},
		{
			"type" : "Feature",
			"geometry" : {
				"type" : "Point",
				"coordinates" : [ 20.543130875, 54.7104721069 ]
			},
			"properties" : {
				"name" : "Сити",
				"rating" : 5
			}
		},
		{
			"type" : "Feature",
			"geometry" : {
				"type" : "Point",
				"coordinates" : [ 20.5284595493, 54.7436294559 ]
			},
			"properties" : {
				"name" : "Храм преподобного Герасима Болдинского",
				"rating" : 4
			}
		},
		{
			"type" : "Feature",
			"geometry" : {
				"type" : "Point",
				"coordinates" : [ 20.4354896549, 54.7594490051 ]
			},
			"properties" : {
				"name" : "Руины Королевского замка",
				"rating" : 2.5
			}
		},
		{
			"type" : "Feature",
			"geometry" : {
				"type" : "Point",
				"coordinates" : [ 20.4941883092, 54.6968193047 ]
			},
			"properties" : {
				"name" : "Музей Марципана",
				"rating" : 5
			}
		},
		{
			"type" : "Feature",
			"geometry" : {
				"type" : "Point",
				"coordinates" : [ 20.5140590666, 54.7001991272 ]
			},
			"properties" : {
				"name" : "Opera Music Hall",
				"rating" : 2.5
			}
		},
		{
			"type" : "Feature",
			"geometry" : {
				"type" : "Point",
				"coordinates" : [ 20.5145092007, 54.7052192691 ]
			},
			"properties" : {
				"name" : "Здание сиротского приюта",
				"rating" : 4
			}
		},
		{
			"type" : "Feature",
			"geometry" : {
				"type" : "Point",
				"coordinates" : [ 20.4851608281, 54.6952514652 ]
			},
			"properties" : {
				"name" : "Объединенная методистская церковь г. Калининграда",
				"rating" : 3.5
			}
		},
		{
			"type" : "Feature",
			"geometry" : {
				"type" : "Point",
				"coordinates" : [ 20.533090591, 54.7176208502 ]
			},
			"properties" : {
				"name" : "Бастион Грольман",
				"rating" : 3.5
			}
		},
		{
			"type" : "Feature",
			"geometry" : {
				"type" : "Point",
				"coordinates" : [ 20.4946384433, 54.6962738038 ]
			},
			"properties" : {
				"name" : "GoodBike",
				"rating" : 5
			}
		},
		{
			"type" : "Feature",
			"geometry" : {
				"type" : "Point",
				"coordinates" : [ 20.5103187558, 54.6687736511 ]
			},
			"properties" : {
				"name" : "Вестер",
				"rating" : 5
			}
		},
		{
			"type" : "Feature",
			"geometry" : {
				"type" : "Point",
				"coordinates" : [ 20.4830608373, 54.7207298279 ]
			},
			"properties" : {
				"name" : "Кинотеатр Заря",
				"rating" : 4.5
			}
		},
		{
			"type" : "Feature",
			"geometry" : {
				"type" : "Point",
				"coordinates" : [ 20.4365100863, 54.7123985288 ]
			},
			"properties" : {
				"name" : "Свято-Никольский женский епархиальный монастырь",
				"rating" : 4.5
			}
		},
		{
			"type" : "Feature",
			"geometry" : {
				"type" : "Point",
				"coordinates" : [ 20.507030487, 54.7369689938 ]
			},
			"properties" : {
				"name" : "Котомания",
				"rating" : 3.5
			}
		},
		{
			"type" : "Feature",
			"geometry" : {
				"type" : "Point",
				"coordinates" : [ 20.4217491151, 54.7205696109 ]
			},
			"properties" : {
				"name" : "Туроператор \"Берега.ру\"",
				"rating" : 0
			}
		},
		{
			"type" : "Feature",
			"geometry" : {
				"type" : "Point",
				"coordinates" : [ 20.5097217561, 54.7209320068 ]
			},
			"properties" : {
				"name" : "Центральный рынок",
				"rating" : 4
			}
		},
		{
			"type" : "Feature",
			"geometry" : {
				"type" : "Point",
				"coordinates" : [ 20.4940052029, 54.7195663452 ]
			},
			"properties" : {
				"name" : "Памятник Фридриху Шиллеру",
				"rating" : 4.5
			}
		},
		{
			"type" : "Feature",
			"geometry" : {
				"type" : "Point",
				"coordinates" : [ 20.5135192869, 54.7220802308 ]
			},
			"properties" : {
				"name" : "Здание школы Гиндербурга",
				"rating" : 4
			}
		},
		{
			"type" : "Feature",
			"geometry" : {
				"type" : "Point",
				"coordinates" : [ 20.4906673427, 54.7101898189 ]
			},
			"properties" : {
				"name" : "Калининградский планетарий им. Ф. В. Бесселя",
				"rating" : 4.5
			}
		},
		{
			"type" : "Feature",
			"geometry" : {
				"type" : "Point",
				"coordinates" : [ 20.490655899, 54.7101936338 ]
			},
			"properties" : {
				"name" : "Железнодорожные ворота",
				"rating" : 4
			}
		},
		{
			"type" : "Feature",
			"geometry" : {
				"type" : "Point",
				"coordinates" : [ 20.5121803282, 54.7063789371 ]
			},
			"properties" : {
				"name" : "Кафедральный Собор",
				"rating" : 4.5
			}
		},
		{
			"type" : "Feature",
			"geometry" : {
				"type" : "Point",
				"coordinates" : [ 20.5148601528, 54.7048988338 ]
			},
			"properties" : {
				"name" : "Cкульптура \"Моряк с обезьянкой\"",
				"rating" : 4.5
			}
		},
		{
			"type" : "Feature",
			"geometry" : {
				"type" : "Point",
				"coordinates" : [ 20.5161399843, 54.7035217289 ]
			},
			"properties" : {
				"name" : "Высокий мост",
				"rating" : 4.5
			}
		},
		{
			"type" : "Feature",
			"geometry" : {
				"type" : "Point",
				"coordinates" : [ 20.4816436767, 54.7312507628 ]
			},
			"properties" : {
				"name" : "Соболев Сыр",
				"rating" : 0
			}
		},
		{
			"type" : "Feature",
			"geometry" : {
				"type" : "Point",
				"coordinates" : [ 20.5016670229, 54.71969223 ]
			},
			"properties" : {
				"name" : "Площадь Победы",
				"rating" : 4.5
			}
		},
		{
			"type" : "Feature",
			"geometry" : {
				"type" : "Point",
				"coordinates" : [ 20.4923095699, 54.6986694341 ]
			},
			"properties" : {
				"name" : "Двухъярусный мост",
				"rating" : 3.5
			}
		},
		{
			"type" : "Feature",
			"geometry" : {
				"type" : "Point",
				"coordinates" : [ 20.5030097958, 54.7209205629 ]
			},
			"properties" : {
				"name" : "Кирха святого Адальберта",
				"rating" : 4
			}
		},
		{
			"type" : "Feature",
			"geometry" : {
				"type" : "Point",
				"coordinates" : [ 20.5105991361, 54.7234687811 ]
			},
			"properties" : {
				"name" : "Каштановый парк",
				"rating" : 3.5
			}
		},
		{
			"type" : "Feature",
			"geometry" : {
				"type" : "Point",
				"coordinates" : [ 20.4425201417, 54.7214698789 ]
			},
			"properties" : {
				"name" : "Памятник Петру I",
				"rating" : 4.5
			}
		},
		{
			"type" : "Feature",
			"geometry" : {
				"type" : "Point",
				"coordinates" : [ 20.5004787449, 54.7062454219 ]
			},
			"properties" : {
				"name" : "Скульптура Малыш Хомлин",
				"rating" : 5
			}
		},
		{
			"type" : "Feature",
			"geometry" : {
				"type" : "Point",
				"coordinates" : [ 20.452213287, 54.7104263311 ]
			},
			"properties" : {
				"name" : "Uтрансфер",
				"rating" : 0
			}
		},
		{
			"type" : "Feature",
			"geometry" : {
				"type" : "Point",
				"coordinates" : [ 20.5635776519, 54.722724915 ]
			},
			"properties" : {
				"name" : "Противостояние",
				"rating" : 0
			}
		},
		{
			"type" : "Feature",
			"geometry" : {
				"type" : "Point",
				"coordinates" : [ 20.5225906373, 54.7056694029 ]
			},
			"properties" : {
				"name" : "Крестовоздвиженский собор",
				"rating" : 4.5
			}
		},
		{
			"type" : "Feature",
			"geometry" : {
				"type" : "Point",
				"coordinates" : [ 20.5029716489, 54.7159576418 ]
			},
			"properties" : {
				"name" : "Торговый центр \"Европа\"",
				"rating" : 4.5
			}
		},
		{
			"type" : "Feature",
			"geometry" : {
				"type" : "Point",
				"coordinates" : [ 20.5127429961, 54.7098121642 ]
			},
			"properties" : {
				"name" : "Дом советов",
				"rating" : 3
			}
		},
		{
			"type" : "Feature",
			"geometry" : {
				"type" : "Point",
				"coordinates" : [ 20.5231342321, 54.7220535279 ]
			},
			"properties" : {
				"name" : "Скульптура Бабушка Хомлин",
				"rating" : 5
			}
		},
		{
			"type" : "Feature",
			"geometry" : {
				"type" : "Point",
				"coordinates" : [ 20.4935512536, 54.7047119141 ]
			},
			"properties" : {
				"name" : "Фридрихсбургские ворота",
				"rating" : 4.5
			}
		},
		{
			"type" : "Feature",
			"geometry" : {
				"type" : "Point",
				"coordinates" : [ 20.5004405979, 54.7192497248 ]
			},
			"properties" : {
				"name" : "Памятник барону Мюнхгаузену",
				"rating" : 4.5
			}
		},
		{
			"type" : "Feature",
			"geometry" : {
				"type" : "Point",
				"coordinates" : [ 20.4679508212, 54.682739258 ]
			},
			"properties" : {
				"name" : "Кирха Дамнау",
				"rating" : 0
			}
		},
		{
			"type" : "Feature",
			"geometry" : {
				"type" : "Point",
				"coordinates" : [ 20.5437202452, 54.7068481452 ]
			},
			"properties" : {
				"name" : "Памятник Адольфу Хайденрайху",
				"rating" : 0
			}
		},
		{
			"type" : "Feature",
			"geometry" : {
				"type" : "Point",
				"coordinates" : [ 20.5121307367, 54.7116203309 ]
			},
			"properties" : {
				"name" : "Здание казармы Врангельского кирасирского полка",
				"rating" : 3.5
			}
		},
		{
			"type" : "Feature",
			"geometry" : {
				"type" : "Point",
				"coordinates" : [ 20.513813019, 54.7057762152 ]
			},
			"properties" : {
				"name" : "Скульптура Дедушка Хомлин",
				"rating" : 5
			}
		},
		{
			"type" : "Feature",
			"geometry" : {
				"type" : "Point",
				"coordinates" : [ 20.3873977659, 54.6656074518 ]
			},
			"properties" : {
				"name" : "Серф-станция \"Глаз ветра\"",
				"rating" : 4.5
			}
		},
		{
			"type" : "Feature",
			"geometry" : {
				"type" : "Point",
				"coordinates" : [ 20.5258865363, 54.7128105161 ]
			},
			"properties" : {
				"name" : "Thai",
				"rating" : 5
			}
		},
		{
			"type" : "Feature",
			"geometry" : {
				"type" : "Point",
				"coordinates" : [ 20.5207214363, 54.734958649 ]
			},
			"properties" : {
				"name" : "Библиотека им. М.Горького",
				"rating" : 4.5
			}
		},
		{
			"type" : "Feature",
			"geometry" : {
				"type" : "Point",
				"coordinates" : [ 20.5440921783, 54.707847595 ]
			},
			"properties" : {
				"name" : "Matrix Club",
				"rating" : 3
			}
		},
		{
			"type" : "Feature",
			"geometry" : {
				"type" : "Point",
				"coordinates" : [ 20.36125946, 54.7248802191 ]
			},
			"properties" : {
				"name" : "Храм Святых мучеников бессеребренников и чудотворцев Космы и Дамиана",
				"rating" : 5
			}
		},
		{
			"type" : "Feature",
			"geometry" : {
				"type" : "Point",
				"coordinates" : [ 20.4437084196, 54.7522277828 ]
			},
			"properties" : {
				"name" : "Форт №5 \"Король Фридрих-Вильгельм III\"",
				"rating" : 4.5
			}
		},
		{
			"type" : "Feature",
			"geometry" : {
				"type" : "Point",
				"coordinates" : [ 20.4915161132, 54.7108383181 ]
			},
			"properties" : {
				"name" : "Парад оловянных солдатиков",
				"rating" : 5
			}
		},
		{
			"type" : "Feature",
			"geometry" : {
				"type" : "Point",
				"coordinates" : [ 20.4518909454, 54.7716789251 ]
			},
			"properties" : {
				"name" : "Malevich Lounge",
				"rating" : 1
			}
		},
		{
			"type" : "Feature",
			"geometry" : {
				"type" : "Point",
				"coordinates" : [ 20.5181884774, 54.7138938898 ]
			},
			"properties" : {
				"name" : "Историко-Художественный Музей",
				"rating" : 4
			}
		},
		{
			"type" : "Feature",
			"geometry" : {
				"type" : "Point",
				"coordinates" : [ 20.5540370944, 54.709133148 ]
			},
			"properties" : {
				"name" : "Аэротруба Атмосфера",
				"rating" : 4.5
			}
		},
		{
			"type" : "Feature",
			"geometry" : {
				"type" : "Point",
				"coordinates" : [ 20.5382080084, 54.7095413212 ]
			},
			"properties" : {
				"name" : "Арт-платформа \"Ворота\"",
				"rating" : 4.5
			}
		},
		{
			"type" : "Feature",
			"geometry" : {
				"type" : "Point",
				"coordinates" : [ 20.5317192076, 54.7304382318 ]
			},
			"properties" : {
				"name" : "На Дадаева",
				"rating" : 4.5
			}
		},
		{
			"type" : "Feature",
			"geometry" : {
				"type" : "Point",
				"coordinates" : [ 20.5674114226, 54.6569786071 ]
			},
			"properties" : {
				"name" : "Форт № 11 Денхофф",
				"rating" : 5
			}
		},
		{
			"type" : "Feature",
			"geometry" : {
				"type" : "Point",
				"coordinates" : [ 20.4594097141, 54.6829299931 ]
			},
			"properties" : {
				"name" : "Храм рождества Пресвятой Богородицы",
				"rating" : 5
			}
		},
		{
			"type" : "Feature",
			"geometry" : {
				"type" : "Point",
				"coordinates" : [ 20.5069007874, 54.705108643 ]
			},
			"properties" : {
				"name" : "Здание янтарной мануфактуры",
				"rating" : 3.5
			}
		},
		{
			"type" : "Feature",
			"geometry" : {
				"type" : "Point",
				"coordinates" : [ 20.5135192869, 54.7220802308 ]
			},
			"properties" : {
				"name" : "Эпицентр",
				"rating" : 4.5
			}
		},
		{
			"type" : "Feature",
			"geometry" : {
				"type" : "Point",
				"coordinates" : [ 20.4909305571, 54.7125091552 ]
			},
			"properties" : {
				"name" : "Памятник Пограничникам всех поколений",
				"rating" : 5
			}
		},
		{
			"type" : "Feature",
			"geometry" : {
				"type" : "Point",
				"coordinates" : [ 20.5049285892, 54.7101478582 ]
			},
			"properties" : {
				"name" : "Балтийский филиал Государственного центра современного искусства",
				"rating" : 4.5
			}
		},
		{
			"type" : "Feature",
			"geometry" : {
				"type" : "Point",
				"coordinates" : [ 20.5095386507, 54.747116089 ]
			},
			"properties" : {
				"name" : "Парк Макса Ашмана",
				"rating" : 3.5
			}
		},
		{
			"type" : "Feature",
			"geometry" : {
				"type" : "Point",
				"coordinates" : [ 20.5265293123, 54.7214088439 ]
			},
			"properties" : {
				"name" : "Бастион Обертайх",
				"rating" : 3.5
			}
		},
		{
			"type" : "Feature",
			"geometry" : {
				"type" : "Point",
				"coordinates" : [ 20.4939212796, 54.7065429689 ]
			},
			"properties" : {
				"name" : "Подводная лодка-музей Б-413",
				"rating" : 5
			}
		},
		{
			"type" : "Feature",
			"geometry" : {
				"type" : "Point",
				"coordinates" : [ 20.4967594151, 54.7117195129 ]
			},
			"properties" : {
				"name" : "Дендропарк",
				"rating" : 4
			}
		},
		{
			"type" : "Feature",
			"geometry" : {
				"type" : "Point",
				"coordinates" : [ 20.5013713837, 54.706363678 ]
			},
			"properties" : {
				"name" : "Фонтан Путти",
				"rating" : 3.5
			}
		},
		{
			"type" : "Feature",
			"geometry" : {
				"type" : "Point",
				"coordinates" : [ 20.5769901279, 54.7106399541 ]
			},
			"properties" : {
				"name" : "Йети Дети",
				"rating" : 0
			}
		},
		{
			"type" : "Feature",
			"geometry" : {
				"type" : "Point",
				"coordinates" : [ 20.5244140619, 54.710044861 ]
			},
			"properties" : {
				"name" : "Храм Святого пророка Захарии и праведной Елисаветы",
				"rating" : 4
			}
		},
		{
			"type" : "Feature",
			"geometry" : {
				"type" : "Point",
				"coordinates" : [ 20.523130417, 54.7205696109 ]
			},
			"properties" : {
				"name" : "Росгартенские ворота",
				"rating" : 4.5
			}
		},
		{
			"type" : "Feature",
			"geometry" : {
				"type" : "Point",
				"coordinates" : [ 20.4875106807, 54.747360229 ]
			},
			"properties" : {
				"name" : "X-Drive",
				"rating" : 5
			}
		},
		{
			"type" : "Feature",
			"geometry" : {
				"type" : "Point",
				"coordinates" : [ 20.5234794619, 54.7441596979 ]
			},
			"properties" : {
				"name" : "Армянская церковь",
				"rating" : 4.5
			}
		},
		{
			"type" : "Feature",
			"geometry" : {
				"type" : "Point",
				"coordinates" : [ 20.473560333, 54.7194099429 ]
			},
			"properties" : {
				"name" : "Театр Кукол",
				"rating" : 4.5
			}
		}
	]
}